{
  "type": "FeatureCollection",
  "generator": "overpass-turbo",
  "copyright": "The data included in this document is from www.openstreetmap.org. The data is made available under ODbL.",
  "timestamp": "2026-02-16T14:09:02Z",
  "features": [
    {
      "type": "Feature",
      "properties": {
        "@id": "node/440296289",
        "name": "Suvidha Shopping Centre",
        "shop": "convenience",
        "wheelchair": "no"
      },
      "geometry": {
        "type": "Point",
        "coordinates": [
          72.5591462,
          23.0144556
        ]
      },
      "id": "node/440296289"
    },
    {
      "type": "Feature",
      "properties": {
        "@id": "node/440360562",
        "name": "10 (Ten) Acres Mall",
        "shop": "supermarket",
        "wheelchair": "limited"
      },
      "geometry": {
        "type": "Point",
        "coordinates": [
          72.5965751,
          23.01524
        ]
      },
      "id": "node/440360562"
    },
    {
      "type": "Feature",
      "properties": {
        "@id": "node/631823296",
        "name": "Arihant Agency",
        "shop": "convenience"
      },
      "geometry": {
        "type": "Point",
        "coordinates": [
          72.5912229,
          23.0235904
        ]
      },
      "id": "node/631823296"
    },
    {
      "type": "Feature",
      "properties": {
        "@id": "node/631823300",
        "name": "Vidyarthi",
        "shop": "books"
      },
      "geometry": {
        "type": "Point",
        "coordinates": [
          72.5902915,
          23.0248237
        ]
      },
      "id": "node/631823300"
    },
    {
      "type": "Feature",
      "properties": {
        "@id": "node/1369674748",
        "addr:housename": "Bharat Kirana Stores",
        "addr:housenumber": "1488/2 Bharat Kirana Stores",
        "addr:postcode": "380004",
        "addr:street": "JUNA MADHUPURA ROAD",
        "alt_name": "Mahendrakumar Sampatlal Shah",
        "designation": "Owner",
        "int_name": "Bharat Kirana Stores",
        "name": "Bharat Kirana Stores",
        "old_name": "Bharat Kirana Stores",
        "shop": "convenience",
        "source": "Owner"
      },
      "geometry": {
        "type": "Point",
        "coordinates": [
          72.5889014,
          23.0380231
        ]
      },
      "id": "node/1369674748"
    },
    {
      "type": "Feature",
      "properties": {
        "@id": "node/1561520728",
        "amenity": "arts_centre",
        "name": "Design Gallery",
        "operator": "National Institute of Design",
        "shop": "lifestyle"
      },
      "geometry": {
        "type": "Point",
        "coordinates": [
          72.5690409,
          23.011756
        ]
      },
      "id": "node/1561520728"
    },
    {
      "type": "Feature",
      "properties": {
        "@id": "node/1973440773",
        "addr:housename": "Shri Krishna Centre",
        "addr:postcode": "380009",
        "addr:street": "Law Garden Road",
        "name": "Crossword Book Store",
        "shop": "books",
        "source": "local_knowledge",
        "website": "https://www.crossword.in/"
      },
      "geometry": {
        "type": "Point",
        "coordinates": [
          72.5653869,
          23.0327479
        ]
      },
      "id": "node/1973440773"
    },
    {
      "type": "Feature",
      "properties": {
        "@id": "node/2377178367",
        "hairdresser": "barber",
        "shop": "hairdresser"
      },
      "geometry": {
        "type": "Point",
        "coordinates": [
          72.5783185,
          23.0229763
        ]
      },
      "id": "node/2377178367"
    },
    {
      "type": "Feature",
      "properties": {
        "@id": "node/2625837278",
        "brand": "Mother Dairy",
        "brand:wikidata": "Q6917320",
        "name": "Mother Dairy",
        "shop": "dairy"
      },
      "geometry": {
        "type": "Point",
        "coordinates": [
          72.5154344,
          23.0355267
        ]
      },
      "id": "node/2625837278"
    },
    {
      "type": "Feature",
      "properties": {
        "@id": "node/3242226332",
        "name": "Induben Khakhrawala",
        "shop": "convenience"
      },
      "geometry": {
        "type": "Point",
        "coordinates": [
          72.5613239,
          23.0325848
        ]
      },
      "id": "node/3242226332"
    },
    {
      "type": "Feature",
      "properties": {
        "@id": "node/3242235764",
        "name": "Romano",
        "opening_hours": "11:00-21:00",
        "shop": "clothes"
      },
      "geometry": {
        "type": "Point",
        "coordinates": [
          72.5603885,
          23.0328013
        ]
      },
      "id": "node/3242235764"
    },
    {
      "type": "Feature",
      "properties": {
        "@id": "node/3242312721",
        "name": "Chanel",
        "shop": "clothes"
      },
      "geometry": {
        "type": "Point",
        "coordinates": [
          72.5601894,
          23.0340092
        ]
      },
      "id": "node/3242312721"
    },
    {
      "type": "Feature",
      "properties": {
        "@id": "node/3291896461",
        "name": "Sheikh Mohimmad atik",
        "opening_hours": "Mo-Fr 09:00-22:00",
        "shop": "kiosk"
      },
      "geometry": {
        "type": "Point",
        "coordinates": [
          72.5837441,
          23.0243077
        ]
      },
      "id": "node/3291896461"
    },
    {
      "type": "Feature",
      "properties": {
        "@id": "node/3292203261",
        "shop": "kiosk-cholle kulchr"
      },
      "geometry": {
        "type": "Point",
        "coordinates": [
          72.5398312,
          23.0307495
        ]
      },
      "id": "node/3292203261"
    },
    {
      "type": "Feature",
      "properties": {
        "@id": "node/3292209861",
        "shop": "prakash-dalwasa",
        "time": "7:00-20:00"
      },
      "geometry": {
        "type": "Point",
        "coordinates": [
          72.5443605,
          23.0265455
        ]
      },
      "id": "node/3292209861"
    },
    {
      "type": "Feature",
      "properties": {
        "@id": "node/3292209962",
        "name": "talsingh",
        "opening_hours": "12 onwards till stock lasts",
        "shop": "kiosk-nagar cholafadi"
      },
      "geometry": {
        "type": "Point",
        "coordinates": [
          72.5443504,
          23.0263991
        ]
      },
      "id": "node/3292209962"
    },
    {
      "type": "Feature",
      "properties": {
        "@id": "node/3292214861",
        "name": "master wada paav",
        "opening_hours": "8:30-20:00",
        "shop": "kiosk"
      },
      "geometry": {
        "type": "Point",
        "coordinates": [
          72.5440367,
          23.0260866
        ]
      },
      "id": "node/3292214861"
    },
    {
      "type": "Feature",
      "properties": {
        "@id": "node/3292224461",
        "name": "sureshbhai prajapati",
        "opening_hours": "9:00-22:30",
        "shop": "kiosk-indorni sabu dana khichdi"
      },
      "geometry": {
        "type": "Point",
        "coordinates": [
          72.5431753,
          23.0230239
        ]
      },
      "id": "node/3292224461"
    },
    {
      "type": "Feature",
      "properties": {
        "@id": "node/3292377162",
        "addr:city": "ahmedabad",
        "addr:street": "vijay char rasta",
        "name": "login",
        "note": "only shop available for xerox at night",
        "opening_hours": "24/7",
        "shop": "tea"
      },
      "geometry": {
        "type": "Point",
        "coordinates": [
          72.5497189,
          23.0425653
        ]
      },
      "id": "node/3292377162"
    },
    {
      "type": "Feature",
      "properties": {
        "@id": "node/3292377261",
        "addr:city": "ahmedabad",
        "addr:street": "vijay char rasta",
        "name": "login",
        "note": "only shop available for xerox at night",
        "opening_hours": "24/7",
        "shop": "tea"
      },
      "geometry": {
        "type": "Point",
        "coordinates": [
          72.5503049,
          23.0425341
        ]
      },
      "id": "node/3292377261"
    },
    {
      "type": "Feature",
      "properties": {
        "@id": "node/3292377262",
        "addr:city": "ahmedabad",
        "addr:street": "vijay cross road",
        "name": "have a nice day",
        "opening_hours": "06:00-21:00",
        "shop": "tea"
      },
      "geometry": {
        "type": "Point",
        "coordinates": [
          72.5506152,
          23.0422756
        ]
      },
      "id": "node/3292377262"
    },
    {
      "type": "Feature",
      "properties": {
        "@id": "node/3292377461",
        "addr:city": "ahmedabad",
        "addr:place": "akshar arcade",
        "name": "R.K.OMLET",
        "opening_hours": "14:00-24:00",
        "shop": "deli"
      },
      "geometry": {
        "type": "Point",
        "coordinates": [
          72.5517948,
          23.0454711
        ]
      },
      "id": "node/3292377461"
    },
    {
      "type": "Feature",
      "properties": {
        "@id": "node/3292377561",
        "name": "Janta",
        "opening_hours": "09:00-23:00",
        "shop": "ice_cream"
      },
      "geometry": {
        "type": "Point",
        "coordinates": [
          72.5337283,
          23.0479379
        ]
      },
      "id": "node/3292377561"
    },
    {
      "type": "Feature",
      "properties": {
        "@id": "node/3293760461",
        "addr:street": "ashram road",
        "name": "new rashtriya bhajiya house",
        "opening_hours": "Mo-Sa 08:00-20:00, Su 08:00-12:00",
        "shop": "kiosk"
      },
      "geometry": {
        "type": "Point",
        "coordinates": [
          72.5692215,
          23.0364058
        ]
      },
      "id": "node/3293760461"
    },
    {
      "type": "Feature",
      "properties": {
        "@id": "node/3293760462",
        "addr:street": "shahpur",
        "famous for": "flavoured soda",
        "name": "krishna cold drinks",
        "opening_hours": "mo-su 9:30-23:00",
        "shop": "beverages"
      },
      "geometry": {
        "type": "Point",
        "coordinates": [
          72.5795927,
          23.0401345
        ]
      },
      "id": "node/3293760462"
    },
    {
      "type": "Feature",
      "properties": {
        "@id": "node/3293760463",
        "addr:street": "shahpur",
        "average rate/kg": "160-300",
        "famous": "biscuts",
        "name": "janta bakery",
        "opening_hours": "mo-su 6:00-22:30",
        "shop": "bakery"
      },
      "geometry": {
        "type": "Point",
        "coordinates": [
          72.5797316,
          23.036703
        ]
      },
      "id": "node/3293760463"
    },
    {
      "type": "Feature",
      "properties": {
        "@id": "node/3293760464",
        "addr:street": "ashram road",
        "famous for": "dry fruits",
        "name": "rehmati bakery",
        "shop": "bakery"
      },
      "geometry": {
        "type": "Point",
        "coordinates": [
          72.5690405,
          23.037044
        ]
      },
      "id": "node/3293760464"
    },
    {
      "type": "Feature",
      "properties": {
        "@id": "node/3293760466",
        "addr:city": "ahmedabad",
        "name": "happiness",
        "opening_hours": "24/7",
        "shop": "coffee"
      },
      "geometry": {
        "type": "Point",
        "coordinates": [
          72.5496027,
          23.0427571
        ]
      },
      "id": "node/3293760466"
    },
    {
      "type": "Feature",
      "properties": {
        "@id": "node/3293760661",
        "addr:street": "ashram road",
        "famous for": "mohanthal",
        "name": "bhogilal mulchand",
        "shop": "bakery"
      },
      "geometry": {
        "type": "Point",
        "coordinates": [
          72.5694452,
          23.0368824
        ]
      },
      "id": "node/3293760661"
    },
    {
      "type": "Feature",
      "properties": {
        "@id": "node/3293760663",
        "addr:street": "ashram road",
        "name": "super tea stall",
        "opening_hours": "Mo-Su 07:00-22:00",
        "shop": "tea"
      },
      "geometry": {
        "type": "Point",
        "coordinates": [
          72.569816,
          23.0376364
        ]
      },
      "id": "node/3293760663"
    },
    {
      "type": "Feature",
      "properties": {
        "@id": "node/3293760665",
        "addr:street": "gandhi bridge",
        "name": "shri shankar bhuvan nashta house",
        "shop": "kiosk"
      },
      "geometry": {
        "type": "Point",
        "coordinates": [
          72.5779042,
          23.0398738
        ]
      },
      "id": "node/3293760665"
    },
    {
      "type": "Feature",
      "properties": {
        "@id": "node/3293760666",
        "addr:street": "120 Feet Ring Road",
        "name": "barley water shop",
        "opening_hours": "24/7",
        "shop": "beverages"
      },
      "geometry": {
        "type": "Point",
        "coordinates": [
          72.549159,
          23.0422114
        ]
      },
      "id": "node/3293760666"
    },
    {
      "type": "Feature",
      "properties": {
        "@id": "node/3293760667",
        "addr:street": "120 Feet Ring Road",
        "name": "navrang restuarant",
        "opening_hours": "24/7",
        "shop": "deli"
      },
      "geometry": {
        "type": "Point",
        "coordinates": [
          72.5492686,
          23.0426527
        ]
      },
      "id": "node/3293760667"
    },
    {
      "type": "Feature",
      "properties": {
        "@id": "node/3293760668",
        "addr:street": "120 Feet Ring Road",
        "name": "jalaram parontha house",
        "opening_hours": "24/7",
        "shop": "deli"
      },
      "geometry": {
        "type": "Point",
        "coordinates": [
          72.549319,
          23.0426291
        ]
      },
      "id": "node/3293760668"
    },
    {
      "type": "Feature",
      "properties": {
        "@id": "node/3293760671",
        "addr:street": "120 Feet Ring Road",
        "name": "punjabi flavours",
        "opening_hours": "24/7",
        "shop": "deli"
      },
      "geometry": {
        "type": "Point",
        "coordinates": [
          72.5493001,
          23.0426338
        ]
      },
      "id": "node/3293760671"
    },
    {
      "type": "Feature",
      "properties": {
        "@id": "node/3293760961",
        "addr:street": "shahpur",
        "famous for": "jain dry snacks",
        "name": "bherunath jain chavana house",
        "shop": "bakery"
      },
      "geometry": {
        "type": "Point",
        "coordinates": [
          72.5798143,
          23.039816
        ]
      },
      "id": "node/3293760961"
    },
    {
      "type": "Feature",
      "properties": {
        "@id": "node/3293761161",
        "addr:street": "St. Xavier's College Road",
        "famous for": "buttermilk and doodh halwa",
        "name": "manhar doodh ghar",
        "opening_hours": "mo-su 5:30-23:00",
        "shop": "bakery"
      },
      "geometry": {
        "type": "Point",
        "coordinates": [
          72.579821,
          23.0385763
        ]
      },
      "id": "node/3293761161"
    },
    {
      "type": "Feature",
      "properties": {
        "@id": "node/3293761162",
        "addr:street": "shahpur",
        "name": "dhanlakshmi fruit stall",
        "shop": "greengrocer"
      },
      "geometry": {
        "type": "Point",
        "coordinates": [
          72.5796656,
          23.0345651
        ]
      },
      "id": "node/3293761162"
    },
    {
      "type": "Feature",
      "properties": {
        "@id": "node/3293761164",
        "addr:street": "ashram road",
        "famous for": "kaju macroon and kashmiri dry fruits",
        "name": "rehmati bakery",
        "shop": "bakery"
      },
      "geometry": {
        "type": "Point",
        "coordinates": [
          72.5691251,
          23.0371194
        ]
      },
      "id": "node/3293761164"
    },
    {
      "type": "Feature",
      "properties": {
        "@id": "node/3293762562",
        "addr:city": "ahmedabad",
        "name": "Amul",
        "opening_hours": "Mo-Su 09:00-21:00",
        "shop": "dairy"
      },
      "geometry": {
        "type": "Point",
        "coordinates": [
          72.5472223,
          23.0440918
        ]
      },
      "id": "node/3293762562"
    },
    {
      "type": "Feature",
      "properties": {
        "@id": "node/3293763763",
        "addr:street": "120 Feet Ring Road",
        "name": "facebook restuarant",
        "opening_hours": "24/7",
        "shop": "deli"
      },
      "geometry": {
        "type": "Point",
        "coordinates": [
          72.5492595,
          23.0426661
        ]
      },
      "id": "node/3293763763"
    },
    {
      "type": "Feature",
      "properties": {
        "@id": "node/3293763764",
        "name": "R K vadapav",
        "shop": "deli"
      },
      "geometry": {
        "type": "Point",
        "coordinates": [
          72.5492615,
          23.0424164
        ]
      },
      "id": "node/3293763764"
    },
    {
      "type": "Feature",
      "properties": {
        "@id": "node/3293792061",
        "addr:street": "120 Feet Ring Road",
        "name": "rasranjan",
        "opening_hours": "Mo-Fr 08:30-20:00; Sa,Su 08:00-15:00; PH off",
        "shop": "bakery"
      },
      "geometry": {
        "type": "Point",
        "coordinates": [
          72.5487336,
          23.042291
        ]
      },
      "id": "node/3293792061"
    },
    {
      "type": "Feature",
      "properties": {
        "@id": "node/3293806562",
        "name": "Mukhwaas",
        "opening_hours": "Mo-Su 09:00-20:00",
        "shop": "kiosk"
      },
      "geometry": {
        "type": "Point",
        "coordinates": [
          72.5871222,
          23.0241153
        ]
      },
      "id": "node/3293806562"
    },
    {
      "type": "Feature",
      "properties": {
        "@id": "node/3306683475",
        "shop": "travel_agency"
      },
      "geometry": {
        "type": "Point",
        "coordinates": [
          72.5927666,
          23.0153173
        ]
      },
      "id": "node/3306683475"
    },
    {
      "type": "Feature",
      "properties": {
        "@id": "node/3774861429",
        "name": "Adidas",
        "shop": "shoes"
      },
      "geometry": {
        "type": "Point",
        "coordinates": [
          72.5291592,
          23.0141932
        ]
      },
      "id": "node/3774861429"
    },
    {
      "type": "Feature",
      "properties": {
        "@id": "node/3774861430",
        "name": "sakuntal hat",
        "shop": "fashion"
      },
      "geometry": {
        "type": "Point",
        "coordinates": [
          72.5283921,
          23.0140155
        ]
      },
      "id": "node/3774861430"
    },
    {
      "type": "Feature",
      "properties": {
        "@id": "node/3846251081",
        "addr:city": "Ahmedabad",
        "addr:postcode": "380015",
        "addr:street": "Sundarvan, Satellite Road",
        "name": "TDW Furniture Private Limited",
        "phone": "+917965469992",
        "shop": "furniture"
      },
      "geometry": {
        "type": "Point",
        "coordinates": [
          72.5217681,
          23.0270936
        ]
      },
      "id": "node/3846251081"
    },
    {
      "type": "Feature",
      "properties": {
        "@id": "node/4199023908",
        "addr:city": "Ahmedabad",
        "addr:postcode": "380015",
        "addr:street": "Satellite Road",
        "name": "Star Bazaar",
        "organic": "yes",
        "shop": "supermarket",
        "website": "https://starbazaarindia.com/"
      },
      "geometry": {
        "type": "Point",
        "coordinates": [
          72.5242142,
          23.0269648
        ]
      },
      "id": "node/4199023908"
    },
    {
      "type": "Feature",
      "properties": {
        "@id": "node/4368248194",
        "name": "Big Bazaar",
        "name:en": "Big Bazaar",
        "shop": "supermarket"
      },
      "geometry": {
        "type": "Point",
        "coordinates": [
          72.5975122,
          23.0147236
        ]
      },
      "id": "node/4368248194"
    },
    {
      "type": "Feature",
      "properties": {
        "@id": "node/4369496892",
        "name:en": "Fabindia",
        "opening_hours": "Mo-Sa 11:00-20:30",
        "shop": "furniture"
      },
      "geometry": {
        "type": "Point",
        "coordinates": [
          72.5194989,
          23.0411515
        ]
      },
      "id": "node/4369496892"
    },
    {
      "type": "Feature",
      "properties": {
        "@id": "node/4369535190",
        "name:en": "Anokhi",
        "opening_hours": "Mo-Sa 10:30-20:00",
        "shop": "furniture"
      },
      "geometry": {
        "type": "Point",
        "coordinates": [
          72.521679,
          23.043024
        ]
      },
      "id": "node/4369535190"
    },
    {
      "type": "Feature",
      "properties": {
        "@id": "node/4378619789",
        "name:en": "Anurag",
        "opening_hours": "Mo-Sa 10:00-19:00",
        "shop": "clothes"
      },
      "geometry": {
        "type": "Point",
        "coordinates": [
          72.5597398,
          23.0323274
        ]
      },
      "id": "node/4378619789"
    },
    {
      "type": "Feature",
      "properties": {
        "@id": "node/4401523191",
        "shop": "optician"
      },
      "geometry": {
        "type": "Point",
        "coordinates": [
          72.5547791,
          23.0523774
        ]
      },
      "id": "node/4401523191"
    },
    {
      "type": "Feature",
      "properties": {
        "@id": "node/4403928290",
        "name": "my tution",
        "name:en": "my tution",
        "shop": "books"
      },
      "geometry": {
        "type": "Point",
        "coordinates": [
          72.5363549,
          23.0570698
        ]
      },
      "id": "node/4403928290"
    },
    {
      "type": "Feature",
      "properties": {
        "@id": "node/4444998991",
        "name": "Reliance Smart",
        "name:en": "Reliance Smart",
        "shop": "supermarket"
      },
      "geometry": {
        "type": "Point",
        "coordinates": [
          72.5265833,
          23.0475825
        ]
      },
      "id": "node/4444998991"
    },
    {
      "type": "Feature",
      "properties": {
        "@id": "node/4480996895",
        "name": "D Mart",
        "name:en": "D Mart",
        "name:hi": "D मार्ट",
        "shop": "department_store"
      },
      "geometry": {
        "type": "Point",
        "coordinates": [
          72.5761383,
          23.0680121
        ]
      },
      "id": "node/4480996895"
    },
    {
      "type": "Feature",
      "properties": {
        "@id": "node/4480996896",
        "name": "Relince Digital",
        "name:en": "Relince Digital",
        "shop": "department_store"
      },
      "geometry": {
        "type": "Point",
        "coordinates": [
          72.5758088,
          23.0680414
        ]
      },
      "id": "node/4480996896"
    },
    {
      "type": "Feature",
      "properties": {
        "@id": "node/4481079389",
        "name": "Arved transcube Plaza",
        "name:en": "Arved transcube Plaza",
        "shop": "supermarket"
      },
      "geometry": {
        "type": "Point",
        "coordinates": [
          72.5760578,
          23.0679571
        ]
      },
      "id": "node/4481079389"
    },
    {
      "type": "Feature",
      "properties": {
        "@id": "node/4482323991",
        "name": "cng",
        "name:en": "cng",
        "shop": "gas"
      },
      "geometry": {
        "type": "Point",
        "coordinates": [
          72.580366,
          23.039025
        ]
      },
      "id": "node/4482323991"
    },
    {
      "type": "Feature",
      "properties": {
        "@id": "node/4483496958",
        "addr:city": "Ahmedabad",
        "addr:postcode": "380009",
        "addr:street": "Chimanlal Girdharlal Road",
        "name": "Half Ticket",
        "shop": "clothes"
      },
      "geometry": {
        "type": "Point",
        "coordinates": [
          72.5617091,
          23.0379538
        ]
      },
      "id": "node/4483496958"
    },
    {
      "type": "Feature",
      "properties": {
        "@id": "node/4483503357",
        "name": "Liberty Showroom",
        "shop": "shoes"
      },
      "geometry": {
        "type": "Point",
        "coordinates": [
          72.5610186,
          23.0368527
        ]
      },
      "id": "node/4483503357"
    },
    {
      "type": "Feature",
      "properties": {
        "@id": "node/4485352190",
        "name": "Maruti Suzuki NEXA",
        "name:en": "Maruti Suzuki NEXA",
        "shop": "car"
      },
      "geometry": {
        "type": "Point",
        "coordinates": [
          72.503458,
          23.0122697
        ]
      },
      "id": "node/4485352190"
    },
    {
      "type": "Feature",
      "properties": {
        "@id": "node/4486247796",
        "name": "Half ticket",
        "name:en": "Half ticket",
        "shop": "clothes"
      },
      "geometry": {
        "type": "Point",
        "coordinates": [
          72.5601493,
          23.0337539
        ]
      },
      "id": "node/4486247796"
    },
    {
      "type": "Feature",
      "properties": {
        "@id": "node/4578929190",
        "addr:housenumber": "1300",
        "addr:postcode": "380001",
        "addr:street": "Relief Road",
        "email": "readymadepocket@gmail.com",
        "internet_access": "wlan",
        "name": "readymadepocket",
        "opening_hours": "Mo-Su 11:10-22:00",
        "phone": "07925500007",
        "shop": "clothes",
        "website": "https://readymadepocket.weebly.com/"
      },
      "geometry": {
        "type": "Point",
        "coordinates": [
          72.5880275,
          23.0277198
        ]
      },
      "id": "node/4578929190"
    },
    {
      "type": "Feature",
      "properties": {
        "@id": "node/4593849590",
        "addr:housenumber": "3",
        "addr:street": "Ellisbridge",
        "name": "HARSHAL PUBLICATION",
        "name:en": "HARSHAL PUBLICATION",
        "shop": "books"
      },
      "geometry": {
        "type": "Point",
        "coordinates": [
          72.5718995,
          23.0228851
        ]
      },
      "id": "node/4593849590"
    },
    {
      "type": "Feature",
      "properties": {
        "@id": "node/4692191289",
        "name": "Art book center specialist in books on indian culture",
        "name:en": "Art book center specialist in books on indian culture",
        "phone": "07926582130",
        "shop": "books"
      },
      "geometry": {
        "type": "Point",
        "coordinates": [
          72.5686718,
          23.0216194
        ]
      },
      "id": "node/4692191289"
    },
    {
      "type": "Feature",
      "properties": {
        "@id": "node/4703607889",
        "shop": "mobile_phone"
      },
      "geometry": {
        "type": "Point",
        "coordinates": [
          72.5710114,
          23.0216703
        ]
      },
      "id": "node/4703607889"
    },
    {
      "type": "Feature",
      "properties": {
        "@id": "node/4762313978",
        "addr:street": "Ramdevnagar road",
        "name": "Mahasagar travels ltd",
        "name:en": "Mahasagar travels ltd",
        "name:hi": "महासागर ट्रेवल्स ली.",
        "phone": "079 26920057",
        "shop": "travel_agency"
      },
      "geometry": {
        "type": "Point",
        "coordinates": [
          72.5252741,
          23.0256216
        ]
      },
      "id": "node/4762313978"
    },
    {
      "type": "Feature",
      "properties": {
        "@id": "node/4762427250",
        "addr:street": "Ramdevnagar road",
        "name": "Neeta travels",
        "name:en": "Neeta travels",
        "shop": "travel_agency",
        "website": "https://neetabus.in/"
      },
      "geometry": {
        "type": "Point",
        "coordinates": [
          72.5253435,
          23.0257415
        ]
      },
      "id": "node/4762427250"
    },
    {
      "type": "Feature",
      "properties": {
        "@id": "node/4762427252",
        "addr:housenumber": "017 Ratnamani",
        "addr:postcode": "380015",
        "addr:street": "Ramdevnagar road",
        "name": "Ramani travels",
        "name:en": "Ramani travels",
        "phone": "099099 22239",
        "shop": "travel_agency"
      },
      "geometry": {
        "type": "Point",
        "coordinates": [
          72.5253774,
          23.026132
        ]
      },
      "id": "node/4762427252"
    },
    {
      "type": "Feature",
      "properties": {
        "@id": "node/4772153721",
        "addr:housenumber": "017 ratnamani",
        "addr:postcode": "380015",
        "addr:street": "Ramdevnagar road",
        "name": "Gujarat travels",
        "name:en": "Gujarat travels",
        "phone": "099099 22239",
        "shop": "travel_agency"
      },
      "geometry": {
        "type": "Point",
        "coordinates": [
          72.5256239,
          23.0261084
        ]
      },
      "id": "node/4772153721"
    },
    {
      "type": "Feature",
      "properties": {
        "@id": "node/4794246526",
        "name": "D Mart",
        "name:en": "D Mart",
        "shop": "supermarket"
      },
      "geometry": {
        "type": "Point",
        "coordinates": [
          72.5759446,
          23.0681594
        ]
      },
      "id": "node/4794246526"
    },
    {
      "type": "Feature",
      "properties": {
        "@id": "node/4794246529",
        "name": "Ranip Vegetable market",
        "name:en": "Ranip Vegetable market",
        "shop": "greengrocer"
      },
      "geometry": {
        "type": "Point",
        "coordinates": [
          72.574545,
          23.0796845
        ]
      },
      "id": "node/4794246529"
    },
    {
      "type": "Feature",
      "properties": {
        "@id": "node/4797415996",
        "name": "havmor",
        "shop": "yes"
      },
      "geometry": {
        "type": "Point",
        "coordinates": [
          72.5486106,
          23.0422888
        ]
      },
      "id": "node/4797415996"
    },
    {
      "type": "Feature",
      "properties": {
        "@id": "node/4797416007",
        "name": "tea stall",
        "shop": "yes"
      },
      "geometry": {
        "type": "Point",
        "coordinates": [
          72.5486687,
          23.042429
        ]
      },
      "id": "node/4797416007"
    },
    {
      "type": "Feature",
      "properties": {
        "@id": "node/5029238552",
        "name": "TGB",
        "shop": "bakery"
      },
      "geometry": {
        "type": "Point",
        "coordinates": [
          72.5549838,
          23.0399675
        ]
      },
      "id": "node/5029238552"
    },
    {
      "type": "Feature",
      "properties": {
        "@id": "node/5136979522",
        "addr:housenumber": "1300",
        "addr:postcode": "380001",
        "addr:street": "Relief Road",
        "email": "readymadepocket@Gmail.com",
        "internet_access": "wlan",
        "name": "readymadepocket",
        "opening_hours": "Mo-Su 09:00-21:35",
        "operator": "AMMAR SHAIKH",
        "phone": "07925500007",
        "shop": "clothes",
        "website": "https://readymadepocket.weebly.com/"
      },
      "geometry": {
        "type": "Point",
        "coordinates": [
          72.5880236,
          23.0277361
        ]
      },
      "id": "node/5136979522"
    },
    {
      "type": "Feature",
      "properties": {
        "@id": "node/5141463317",
        "name": "Vijay Sales",
        "shop": "supermarket"
      },
      "geometry": {
        "type": "Point",
        "coordinates": [
          72.5299101,
          23.045838
        ]
      },
      "id": "node/5141463317"
    },
    {
      "type": "Feature",
      "properties": {
        "@id": "node/5141463318",
        "name": "Shades of Black Spalon",
        "shop": "hairdresser"
      },
      "geometry": {
        "type": "Point",
        "coordinates": [
          72.5297042,
          23.0440516
        ]
      },
      "id": "node/5141463318"
    },
    {
      "type": "Feature",
      "properties": {
        "@id": "node/5527662868",
        "shop": "convenience"
      },
      "geometry": {
        "type": "Point",
        "coordinates": [
          72.5783117,
          23.0331551
        ]
      },
      "id": "node/5527662868"
    },
    {
      "type": "Feature",
      "properties": {
        "@id": "node/6380749909",
        "addr:city": "Ahmedabad",
        "addr:housenumber": "1",
        "addr:postcode": "380015",
        "addr:street": "Satellite Road",
        "brand": "k r sons",
        "name": "K R SONS",
        "opening_hours": "Mo-Sa 10:00-19:30",
        "operator": "K R SONS AHD",
        "payment:cards": "yes",
        "payment:cash": "yes",
        "payment:online_payment": "yes",
        "shop": "jewelry"
      },
      "geometry": {
        "type": "Point",
        "coordinates": [
          72.5235517,
          23.0260246
        ]
      },
      "id": "node/6380749909"
    },
    {
      "type": "Feature",
      "properties": {
        "@id": "node/6782650185",
        "addr:postcode": "380015",
        "name": "Murlidhar",
        "name:en": "Murlidhar Shyamal",
        "shop": "beverages"
      },
      "geometry": {
        "type": "Point",
        "coordinates": [
          72.5296525,
          23.013976
        ]
      },
      "id": "node/6782650185"
    },
    {
      "type": "Feature",
      "properties": {
        "@id": "node/6782988986",
        "addr:postcode": "380015",
        "addr:street": "132 Ft. Ring Road",
        "name": "cafe13",
        "name:hi": "cafe 13",
        "shop": "beverages"
      },
      "geometry": {
        "type": "Point",
        "coordinates": [
          72.529945,
          23.0133426
        ]
      },
      "id": "node/6782988986"
    },
    {
      "type": "Feature",
      "properties": {
        "@id": "node/7418072411",
        "addr:city": "Ahmedabad",
        "addr:postcode": "380015",
        "name": "Iscon Emporio",
        "shop": "mall"
      },
      "geometry": {
        "type": "Point",
        "coordinates": [
          72.5244892,
          23.0265633
        ]
      },
      "id": "node/7418072411"
    },
    {
      "type": "Feature",
      "properties": {
        "@id": "node/8130441354",
        "addr:city": "ahmedabad",
        "addr:housenumber": "A2, Vishal Apartments",
        "addr:postcode": "380009",
        "addr:street": "Next to Neelam Lutf restaurant, Off Close to University Road, Vijay Cross Rd, Ahmedabad, Gujarat 380009",
        "name": "7Violettes",
        "organic": "yes",
        "shop": "bakery",
        "website": "https://www.facebook.com/7Violettes-119596228222873/"
      },
      "geometry": {
        "type": "Point",
        "coordinates": [
          72.5449441,
          23.040378
        ]
      },
      "id": "node/8130441354"
    },
    {
      "type": "Feature",
      "properties": {
        "@id": "node/8138732693",
        "addr:city": "ahmedabad",
        "addr:housenumber": "8 Dev Complex",
        "addr:postcode": "380006",
        "addr:street": "opp. mercedes benz, Parimal Cross Roads",
        "clothes": "women;men;children;winter_wear;Woolen_Clothing;sweaters;Jackets;Thermals;sports;workwear;denim;fur;unisexs",
        "name": "Monte Carlo Exclusive Showroom",
        "opening_hours": "Mo-Su 09:00-21:00",
        "operator": "Dev Garments",
        "payment:american_express": "yes",
        "payment:cards": "yes",
        "payment:cash": "yes",
        "payment:credit_cards": "yes",
        "payment:debit_cards": "yes",
        "payment:mastercard": "yes",
        "payment:visa": "yes",
        "phone": "9898118854",
        "shop": "clothes",
        "showroom": "Clothing"
      },
      "geometry": {
        "type": "Point",
        "coordinates": [
          72.5578748,
          23.0200403
        ]
      },
      "id": "node/8138732693"
    },
    {
      "type": "Feature",
      "properties": {
        "@id": "node/8138781699",
        "addr:city": "Ahmedabad",
        "addr:housenumber": "7, Shivalik Arcade",
        "addr:postcode": "380015",
        "addr:street": "Nr, Prahladnagar garden, 100 Ft. Road",
        "clothes": "women;men;children;workwear;fashion;denim;fur;unisexs;winter_wear;Sweaters;Jackets;Woolen_Wear",
        "name": "Monte Carlo Showroom",
        "opening_hours": "Mo-Su 09:00-21:00",
        "operator": "Dev Garments",
        "payment:american_express": "yes",
        "payment:cash": "yes",
        "payment:credit_cards": "yes",
        "payment:debit_cards": "yes",
        "payment:diners_club": "yes",
        "payment:mastercard": "yes",
        "payment:visa": "yes",
        "phone": "9898118854",
        "shop": "clothes"
      },
      "geometry": {
        "type": "Point",
        "coordinates": [
          72.5084185,
          23.0117186
        ]
      },
      "id": "node/8138781699"
    },
    {
      "type": "Feature",
      "properties": {
        "@id": "node/8139065150",
        "addr:city": "Ahmedabad",
        "addr:housenumber": "A-3 Aman Apartment",
        "addr:postcode": "380009",
        "addr:street": "Off bank of baroda, St. Xavier's College Road",
        "name": "Monte Carlo Warehouse",
        "opening_hours": "Mo-Sa 10:00-20:00",
        "operator": "Dev Agency",
        "phone": "9898118854",
        "shop": "wholesale",
        "wholesale": "clothes"
      },
      "geometry": {
        "type": "Point",
        "coordinates": [
          72.5540638,
          23.0351743
        ]
      },
      "id": "node/8139065150"
    },
    {
      "type": "Feature",
      "properties": {
        "@id": "node/8143691114",
        "addr:city": "Ahmadabad",
        "addr:housenumber": "Shivalik Building, 501",
        "addr:postcode": "380006",
        "addr:street": "Panchavati Rd, Panchavati Society, Gulbai Tekra, Ahmedabad, Gujarat 380006",
        "name": "SkinYoga",
        "organic": "only",
        "shop": "supermarket",
        "website": "https://skinyoga.in/"
      },
      "geometry": {
        "type": "Point",
        "coordinates": [
          72.5546839,
          23.0210027
        ]
      },
      "id": "node/8143691114"
    },
    {
      "type": "Feature",
      "properties": {
        "@id": "node/8220949079",
        "addr:city": "Ahmedabad",
        "addr:postcode": "380001",
        "addr:street": "Rustom Cama Marg",
        "fair_trade": "yes",
        "name": "Ahmedabad Trunk, House of Mg",
        "organic": "yes",
        "shop": "clothes",
        "website": "https://ahmedabadtrunk.in/"
      },
      "geometry": {
        "type": "Point",
        "coordinates": [
          72.5815218,
          23.0271285
        ]
      },
      "id": "node/8220949079"
    },
    {
      "type": "Feature",
      "properties": {
        "@id": "node/8244919122",
        "addr:city": "ahmedabad",
        "addr:postcode": "380009",
        "addr:street": "Chimanlal Girdharlal Road",
        "clothes": "women;men",
        "name": "Max Fashion",
        "organic": "yes",
        "shop": "clothes",
        "website": "https://www.maxfashion.in/"
      },
      "geometry": {
        "type": "Point",
        "coordinates": [
          72.5599716,
          23.0139658
        ]
      },
      "id": "node/8244919122"
    },
    {
      "type": "Feature",
      "properties": {
        "@id": "node/8244936295",
        "addr:city": "ahmedabad",
        "addr:street": "Satellite Road",
        "clothes": "women;men",
        "name": "Max Fashion",
        "organic": "yes",
        "payment:cash": "yes",
        "payment:debit_cards": "yes",
        "shop": "clothes",
        "website": "https://www.maxfashion.in/"
      },
      "geometry": {
        "type": "Point",
        "coordinates": [
          72.5101534,
          23.0268655
        ]
      },
      "id": "node/8244936295"
    },
    {
      "type": "Feature",
      "properties": {
        "@id": "node/8252389265",
        "addr:city": "Ahmedabad, Gujarat. India",
        "addr:postcode": "380009",
        "addr:street": "Gulbai Tekra Road",
        "name": "Greenobazaar",
        "organic": "only",
        "payment:cash": "yes",
        "payment:debit_cards": "yes",
        "shop": "supermarket",
        "website": "https://www.greenobazaar.com/"
      },
      "geometry": {
        "type": "Point",
        "coordinates": [
          72.5542516,
          23.0253822
        ]
      },
      "id": "node/8252389265"
    },
    {
      "type": "Feature",
      "properties": {
        "@id": "node/8844248828",
        "name": "Jawed Habib Hair Studio",
        "shop": "hairdresser"
      },
      "geometry": {
        "type": "Point",
        "coordinates": [
          72.507652,
          23.0398457
        ]
      },
      "id": "node/8844248828"
    },
    {
      "type": "Feature",
      "properties": {
        "@id": "node/8844248829",
        "name": "Jawed Habib Hair Studio",
        "shop": "hairdresser"
      },
      "geometry": {
        "type": "Point",
        "coordinates": [
          72.5311643,
          23.0465691
        ]
      },
      "id": "node/8844248829"
    },
    {
      "type": "Feature",
      "properties": {
        "@id": "node/8844322307",
        "name": "Sompura Moorti Art",
        "shop": "interior_decoration"
      },
      "geometry": {
        "type": "Point",
        "coordinates": [
          72.5105743,
          23.0339711
        ]
      },
      "id": "node/8844322307"
    },
    {
      "type": "Feature",
      "properties": {
        "@id": "node/9006976037",
        "addr:city": "Ahmedabad",
        "addr:housenumber": "1st Floor, The Capital",
        "addr:postcode": "380060",
        "addr:street": "science city road",
        "air_conditioning": "yes",
        "brand": "vibram;giro;castelli;triumph",
        "name": "Gambol",
        "opening_hours": "Mo-Su 10:00-20:30",
        "phone": "+916353536612",
        "shop": "sports",
        "sport": "cycling;soccer",
        "website": "https://gambol.in/"
      },
      "geometry": {
        "type": "Point",
        "coordinates": [
          72.5095604,
          23.0758568
        ]
      },
      "id": "node/9006976037"
    },
    {
      "type": "Feature",
      "properties": {
        "@id": "node/9009705195",
        "addr:city": "Ahmedabad, Gujarat. India",
        "addr:postcode": "380006",
        "addr:street": "Chimanlal Girdharlal Road",
        "brand": "Decathlon",
        "brand:wikidata": "Q509349",
        "brand:wikipedia": "en:Decathlon (retailer)",
        "name": "Decathlon",
        "opening_hours": "Mo-Fr 10:00-21:00; Sa,Su 10:00-22:00",
        "phone": "+918431910061",
        "shop": "sports",
        "sport": "multi",
        "website": "https://www.decathlon.in/"
      },
      "geometry": {
        "type": "Point",
        "coordinates": [
          72.5563764,
          23.0247142
        ]
      },
      "id": "node/9009705195"
    },
    {
      "type": "Feature",
      "properties": {
        "@id": "node/9254988755",
        "addr:housenumber": "Asarpota Chambers, 2",
        "addr:street": "Chimanlal Girdharlal Rd, opp. Mirch Masala Restaurant, Swastik Society, Navrangpura, Ahmedabad, Gujarat 380009",
        "description": "My-My India",
        "name": "My My",
        "opening_hours": "Mo-Su 10:30-21:00",
        "phone": "079 2656 1558",
        "shop": "clothes",
        "website": "https://mymyindia.com"
      },
      "geometry": {
        "type": "Point",
        "coordinates": [
          72.562492,
          23.037796
        ]
      },
      "id": "node/9254988755"
    },
    {
      "type": "Feature",
      "properties": {
        "@id": "node/9254994181",
        "addr:street": "C.G.Road, Umashankar Joshi Marg, Opposite Girish coldrinks, Sardar Patel Nagar, Ellisbridge, Ahmedabad, Gujarat 380009",
        "name": "Miniso",
        "opening_hours": "Mo-Su 11:00-20:30",
        "shop": "variety_store",
        "website": "https://minisoindia.com"
      },
      "geometry": {
        "type": "Point",
        "coordinates": [
          72.5597384,
          23.0325101
        ]
      },
      "id": "node/9254994181"
    },
    {
      "type": "Feature",
      "properties": {
        "@id": "node/9287472853",
        "addr:housenumber": "First Floor, Ten11 Complex, Opp. Cargo Ford Near Mardia Plaza",
        "addr:street": "Chimanlal Girdharlal Rd, Ahmedabad, Gujarat 380006",
        "name": "Manmandir",
        "opening_hours": "Mo-Su 11:00-21:00",
        "shop": "clothes"
      },
      "geometry": {
        "type": "Point",
        "coordinates": [
          72.5573436,
          23.0269177
        ]
      },
      "id": "node/9287472853"
    },
    {
      "type": "Feature",
      "properties": {
        "@id": "node/9312365803",
        "address": "Agrawal Avenue, 4-5, Chimanlal Girdharlal Rd, Opposite Navarangpura Tel.Exchange, Mithakhali, Navrangpura, Ahmedabad, Gujarat 380009",
        "email": "adaniselection12@gmail.com",
        "facebook": "adanicreation",
        "instagram": "adani_creation",
        "name": "Adani Selection",
        "opening_hours": "Mo-Sa 10:30-21:00; Su 11:00-20:30",
        "phone": "07926421172",
        "shop": "clothes",
        "website": "https://www.suitsherwani.com"
      },
      "geometry": {
        "type": "Point",
        "coordinates": [
          72.5596837,
          23.0313547
        ]
      },
      "id": "node/9312365803"
    },
    {
      "type": "Feature",
      "properties": {
        "@id": "node/9318825268",
        "name": "Patidar",
        "phone": "079 2643 1592",
        "shop": "clothes"
      },
      "geometry": {
        "type": "Point",
        "coordinates": [
          72.5550503,
          23.0284321
        ]
      },
      "id": "node/9318825268"
    },
    {
      "type": "Feature",
      "properties": {
        "@id": "node/9329076828",
        "address": "Ratnam Complex,Opposite Iscon Mall, Chimanlal Girdharlal Rd, Ellisbridge, Ahmedabad, Gujarat 380006",
        "name": "Tape Me Ft",
        "shop": "clothes"
      },
      "geometry": {
        "type": "Point",
        "coordinates": [
          72.5577834,
          23.0276806
        ]
      },
      "id": "node/9329076828"
    },
    {
      "type": "Feature",
      "properties": {
        "@id": "node/9329077836",
        "address": "Ratnam Complex,Opposite Iscon Mall, Chimanlal Girdharlal Rd, Ellisbridge, Ahmedabad, Gujarat 380006",
        "name": "Telarica",
        "shop": "clothes",
        "website": "https://telaricastudio.com/"
      },
      "geometry": {
        "type": "Point",
        "coordinates": [
          72.5578597,
          23.0278177
        ]
      },
      "id": "node/9329077836"
    },
    {
      "type": "Feature",
      "properties": {
        "@id": "node/9370470858",
        "addr:full": "Ground Floow, Shalin Complex, Nehru Bridge Corner, Ashram Rd, Ellisbridge, Ahmedabad, Gujarat 380009",
        "addr:housenumber": "Shalin Complex",
        "addr:street": "Ashram Road",
        "name": "Asopalav",
        "shop": "clothes",
        "website": "https://asopalav.com"
      },
      "geometry": {
        "type": "Point",
        "coordinates": [
          72.5714659,
          23.0260527
        ]
      },
      "id": "node/9370470858"
    },
    {
      "type": "Feature",
      "properties": {
        "@id": "node/9809117886",
        "addr:city": "Ahemedabad",
        "addr:postcode": "380015",
        "addr:street": "Iskcon Cross Rd, Sanidhya",
        "name": "Shivalik Shilp",
        "shop": "supermarket"
      },
      "geometry": {
        "type": "Point",
        "coordinates": [
          72.5066805,
          23.0269943
        ]
      },
      "id": "node/9809117886"
    },
    {
      "type": "Feature",
      "properties": {
        "@id": "node/10025847568",
        "addr:postcode": "380051",
        "address": "No.1,Kamlesh Park Society, Near Swami Narayan Temple,132 F, Ring Road, Jivaraj Park, Vejalpur, Ahmedabad – 380 051,",
        "contact:phone": "918088001122",
        "description": "Leo Packers and Movers Service  in Ahmedabad",
        "email": "info@leopackersandmovers.com",
        "name": "Leo Packers and Movers Ahmedabad",
        "shop": "yes",
        "website": "https://leopackersandmovers.com"
      },
      "geometry": {
        "type": "Point",
        "coordinates": [
          72.5338759,
          23.0042556
        ]
      },
      "id": "node/10025847568"
    },
    {
      "type": "Feature",
      "properties": {
        "@id": "node/10591957830",
        "addr:city": "Ahmedabad",
        "addr:postcode": "380004",
        "addr:street": "Dr. Ambedkar Road",
        "image": "https://th.bing.com/th/id/OIP.XTNNcp1ST8kf4F0ZqymFVgHaFB?w=266&h=180&c=7&r=0&o=5&dpr=1.4&pid=1.7",
        "name": "Reliance mart",
        "opening_hours": "su-Sa 10:00-21:00",
        "payment:cash": "yes",
        "payment:contactless": "yes",
        "payment:credit_cards": "yes",
        "phone": "079 4008 8488",
        "shop": "mall"
      },
      "geometry": {
        "type": "Point",
        "coordinates": [
          72.5880349,
          23.0446678
        ]
      },
      "id": "node/10591957830"
    },
    {
      "type": "Feature",
      "properties": {
        "@id": "node/10591957832",
        "shop": "Lucky tea shop"
      },
      "geometry": {
        "type": "Point",
        "coordinates": [
          72.5811194,
          23.0275632
        ]
      },
      "id": "node/10591957832"
    },
    {
      "type": "Feature",
      "properties": {
        "@id": "node/10750415883",
        "name": "market",
        "shop": "supermarket"
      },
      "geometry": {
        "type": "Point",
        "coordinates": [
          72.5256771,
          23.040802
        ]
      },
      "id": "node/10750415883"
    },
    {
      "type": "Feature",
      "properties": {
        "@id": "node/10781479077",
        "addr:city": "Ahmedabad",
        "addr:country": "IN",
        "addr:housenumber": "407",
        "addr:postcode": "380054",
        "addr:street": "Baleshwar Avenue",
        "name": "JK MEDIRISE Disposable Medical Devices",
        "name:es": "JK Medirise Dispositivos médicos desechables",
        "name:fr": "JK MEDIRISE Dispositifs médicaux jetables",
        "opening_hours": "Mo-Sa 08:00-18:00",
        "operator": "Mr Ketan",
        "payment:visa": "yes",
        "phone": "+919016828579",
        "shop": "supermarket",
        "source": "Medical Supplies;hospital consumables;catheter;Syringes;Cannula;Needle;Gloves;Bandages;Sutures;Spinal;Biopsy"
      },
      "geometry": {
        "type": "Point",
        "coordinates": [
          72.5107957,
          23.0338871
        ]
      },
      "id": "node/10781479077"
    },
    {
      "type": "Feature",
      "properties": {
        "@id": "node/11277549799",
        "addr:city": "Ahmedabad",
        "addr:district": "Ahmedabad",
        "addr:street": "Thaltej Underbridge",
        "name": "Permit Shop",
        "operator": "The Grand Bhagwati",
        "shop": "alcohol"
      },
      "geometry": {
        "type": "Point",
        "coordinates": [
          72.514597,
          23.0423693
        ]
      },
      "id": "node/11277549799"
    },
    {
      "type": "Feature",
      "properties": {
        "@id": "node/11277586272",
        "addr:city": "Ahmedabad",
        "addr:district": "Ahmedabad",
        "addr:postcode": "380001",
        "addr:street": "RiverFront Road",
        "name": "Permit Shop",
        "operator": "The Cama",
        "shop": "alcohol"
      },
      "geometry": {
        "type": "Point",
        "coordinates": [
          72.5766929,
          23.0318963
        ]
      },
      "id": "node/11277586272"
    },
    {
      "type": "Feature",
      "properties": {
        "@id": "node/11277587458",
        "addr:city": "Ahmedabad",
        "addr:district": "Ahmedabad",
        "addr:street": "Mithakhali Six Roads Circle / Cross Roads",
        "name": "Permit Shop",
        "operator": "Hotel Nalanda",
        "shop": "alcohol"
      },
      "geometry": {
        "type": "Point",
        "coordinates": [
          72.5640345,
          23.030564
        ]
      },
      "id": "node/11277587458"
    },
    {
      "type": "Feature",
      "properties": {
        "@id": "node/11277587923",
        "addr:city": "Ahmedabad",
        "addr:district": "Ahmedabad",
        "addr:postcode": "380001",
        "addr:street": "RiverFront Road",
        "name": "Permit Shop",
        "operator": "Rivera Sarovar Portico",
        "shop": "alcohol"
      },
      "geometry": {
        "type": "Point",
        "coordinates": [
          72.5763187,
          23.0334082
        ]
      },
      "id": "node/11277587923"
    },
    {
      "type": "Feature",
      "properties": {
        "@id": "node/11277592072",
        "addr:city": "Ahmedabad",
        "addr:district": "Ahmedabad",
        "addr:street": "Surendra Mangaldas Road",
        "name": "Permit Shop",
        "operator": "Hotel Inder Residency",
        "shop": "alcohol"
      },
      "geometry": {
        "type": "Point",
        "coordinates": [
          72.5675542,
          23.0221573
        ]
      },
      "id": "node/11277592072"
    },
    {
      "type": "Feature",
      "properties": {
        "@id": "node/11277619641",
        "addr:city": "Ahmedabad",
        "addr:district": "Ahmedabad",
        "addr:street": "Chimanlal Girdharlal Road",
        "name": "Permit Shop",
        "operator": "The President",
        "shop": "alcohol"
      },
      "geometry": {
        "type": "Point",
        "coordinates": [
          72.560205,
          23.0353514
        ]
      },
      "id": "node/11277619641"
    },
    {
      "type": "Feature",
      "properties": {
        "@id": "node/11277641604",
        "addr:city": "Ahmedabad",
        "addr:district": "Ahmedabad",
        "addr:street": "Corporate road",
        "name": "Permit Shop",
        "operator": "Ramada",
        "shop": "alcohol"
      },
      "geometry": {
        "type": "Point",
        "coordinates": [
          72.5048678,
          23.0106832
        ]
      },
      "id": "node/11277641604"
    },
    {
      "type": "Feature",
      "properties": {
        "@id": "node/11278801921",
        "addr:city": "Ahmedabad",
        "addr:district": "Ahmedabad",
        "name": "Permit Shop",
        "operator": "Crowne Plaza Ahmedabad",
        "shop": "alcohol"
      },
      "geometry": {
        "type": "Point",
        "coordinates": [
          72.5043286,
          23.01499
        ]
      },
      "id": "node/11278801921"
    },
    {
      "type": "Feature",
      "properties": {
        "@id": "node/11278820418",
        "addr:city": "Ahmedabad",
        "addr:district": "Ahmedabad",
        "name": "Permit Shop",
        "operator": "Hyatt Ahmedabad",
        "shop": "alcohol"
      },
      "geometry": {
        "type": "Point",
        "coordinates": [
          72.5304465,
          23.0393771
        ]
      },
      "id": "node/11278820418"
    },
    {
      "type": "Feature",
      "properties": {
        "@id": "node/11278823372",
        "addr:city": "Ahmedabad",
        "addr:district": "Ahmedabad",
        "addr:street": "Iskcon Overbridge",
        "name": "Permit Shop",
        "operator": "Novotel Ahmedabad",
        "shop": "alcohol"
      },
      "geometry": {
        "type": "Point",
        "coordinates": [
          72.5073271,
          23.0240019
        ]
      },
      "id": "node/11278823372"
    },
    {
      "type": "Feature",
      "properties": {
        "@id": "node/11278825163",
        "addr:city": "Ahmedabad",
        "addr:district": "Ahmedabad",
        "addr:street": "Satellite Road",
        "name": "Permit Shop",
        "operator": "Courtyard by Marriott",
        "shop": "alcohol"
      },
      "geometry": {
        "type": "Point",
        "coordinates": [
          72.5121247,
          23.027837
        ]
      },
      "id": "node/11278825163"
    },
    {
      "type": "Feature",
      "properties": {
        "@id": "node/11278833442",
        "addr:city": "Ahmedabad",
        "addr:district": "Ahmedabad",
        "addr:street": "Balvantrai Mehta Road",
        "name": "Permit Shop",
        "operator": "The Metropole",
        "shop": "alcohol"
      },
      "geometry": {
        "type": "Point",
        "coordinates": [
          72.5841727,
          23.0653464
        ]
      },
      "id": "node/11278833442"
    },
    {
      "type": "Feature",
      "properties": {
        "@id": "node/11278844232",
        "addr:city": "Ahmedabad",
        "addr:district": "Ahmedabad",
        "name": "Permit Shop",
        "operator": "Avalon Hotel and Banquets",
        "shop": "alcohol"
      },
      "geometry": {
        "type": "Point",
        "coordinates": [
          72.5081211,
          23.0459841
        ]
      },
      "id": "node/11278844232"
    },
    {
      "type": "Feature",
      "properties": {
        "@id": "node/11278859066",
        "addr:city": "Ahmedabad",
        "addr:district": "Ahmedabad",
        "addr:street": "Ashram Road",
        "name": "Permit Shop",
        "operator": "Fortune Landmark",
        "shop": "alcohol"
      },
      "geometry": {
        "type": "Point",
        "coordinates": [
          72.570414,
          23.0477803
        ]
      },
      "id": "node/11278859066"
    },
    {
      "type": "Feature",
      "properties": {
        "@id": "node/11300307469",
        "addr:postcode": "380054",
        "addr:street": "Service road - Sarkhej Gandhinagar Highway",
        "internet_access": "wlan",
        "name": "Palladium Mall",
        "shop": "mall"
      },
      "geometry": {
        "type": "Point",
        "coordinates": [
          72.5208841,
          23.0581218
        ]
      },
      "id": "node/11300307469"
    },
    {
      "type": "Feature",
      "properties": {
        "@id": "node/11716845862",
        "addr:city": "Ahmedabad, Gujarat. India",
        "addr:housenumber": "B26 Silicon Valley",
        "addr:postcode": "380015",
        "addr:street": "Shiv Ranjani X Road,",
        "name": "HP World",
        "operator": "Zion eStore",
        "payment:credit_cards": "yes",
        "phone": "8000943218",
        "shop": "computer"
      },
      "geometry": {
        "type": "Point",
        "coordinates": [
          72.5301999,
          23.0253774
        ]
      },
      "id": "node/11716845862"
    },
    {
      "type": "Feature",
      "properties": {
        "@id": "node/11741415630",
        "addr:city": "Ahmedabad",
        "addr:housenumber": "4",
        "addr:postcode": "380027",
        "addr:street": "Subhash Bridge Circle",
        "name": "FONEBOOK RTO SUBHASHBRIDGE",
        "opening_hours": "Mo-Su 10:00-21:00",
        "shop": "mobile_phone"
      },
      "geometry": {
        "type": "Point",
        "coordinates": [
          72.5838669,
          23.0664532
        ]
      },
      "id": "node/11741415630"
    },
    {
      "type": "Feature",
      "properties": {
        "@id": "node/11779942427",
        "addr:district": "Ahmedabad",
        "addr:housenumber": "4",
        "addr:street": "BHAGWATI NAGAR SOCIETY",
        "name": "Ishwarkrupa Emporium",
        "shop": "yes"
      },
      "geometry": {
        "type": "Point",
        "coordinates": [
          72.5156419,
          23.0095524
        ]
      },
      "id": "node/11779942427"
    },
    {
      "type": "Feature",
      "properties": {
        "@id": "node/11801928106",
        "name": "Ladies & Gents Tailors",
        "shop": "yes"
      },
      "geometry": {
        "type": "Point",
        "coordinates": [
          72.5273517,
          23.0353456
        ]
      },
      "id": "node/11801928106"
    },
    {
      "type": "Feature",
      "properties": {
        "@id": "node/12041481374",
        "addr:housenumber": "12",
        "addr:street": "12, Sukhumal Nagar Society Chandlodiya Rd, Dhanjibhai Kuva,, Chandlodiya, Ahmedabad, Gujarat 382481",
        "name": "Navkar traders",
        "shop": "yes"
      },
      "geometry": {
        "type": "Point",
        "coordinates": [
          72.5548427,
          23.0775587
        ]
      },
      "id": "node/12041481374"
    },
    {
      "type": "Feature",
      "properties": {
        "@id": "node/12165401787",
        "name": "Amul Parlour",
        "shop": "convenience"
      },
      "geometry": {
        "type": "Point",
        "coordinates": [
          72.503133,
          23.0277968
        ]
      },
      "id": "node/12165401787"
    },
    {
      "type": "Feature",
      "properties": {
        "@id": "node/12612330652",
        "addr:city": "ahmedabad",
        "addr:district": "Ahmedabad",
        "addr:postcode": "380054",
        "addr:street": "satadhar cross road",
        "name": "divya farm & nursery",
        "shop": "garden_centre"
      },
      "geometry": {
        "type": "Point",
        "coordinates": [
          72.5307212,
          23.0606654
        ]
      },
      "id": "node/12612330652"
    },
    {
      "type": "Feature",
      "properties": {
        "@id": "node/12612330653",
        "addr:city": "Ahmedabad",
        "addr:district": "Ahmedabad",
        "addr:postcode": "3800054",
        "addr:street": "surdhara",
        "name": "green gujarat nursery",
        "shop": "garden_centre"
      },
      "geometry": {
        "type": "Point",
        "coordinates": [
          72.5217051,
          23.055172
        ]
      },
      "id": "node/12612330653"
    },
    {
      "type": "Feature",
      "properties": {
        "@id": "node/12612346226",
        "addr:city": "Ahmedabad",
        "addr:district": "Ahmedabad",
        "addr:postcode": "380054",
        "addr:street": "bodakdev",
        "name": "sankat mochan nursery",
        "shop": "garden_centre"
      },
      "geometry": {
        "type": "Point",
        "coordinates": [
          72.5147718,
          23.037706
        ]
      },
      "id": "node/12612346226"
    },
    {
      "type": "Feature",
      "properties": {
        "@id": "node/12612359608",
        "addr:city": "Ahmedabad",
        "addr:district": "Ahmedabad",
        "addr:postcode": "380058",
        "addr:street": "Ambli Bopal Road",
        "name": "Naidu nursery",
        "shop": "garden_centre"
      },
      "geometry": {
        "type": "Point",
        "coordinates": [
          72.504409,
          23.0273673
        ]
      },
      "id": "node/12612359608"
    },
    {
      "type": "Feature",
      "properties": {
        "@id": "node/12612453819",
        "addr:city": "Ahmedabad",
        "addr:district": "Ahmedabad",
        "addr:postcode": "380013",
        "addr:street": "1/6 Gagan Vihar Apt, 132 Feet Ring Rd, opp. Kalupur Bank, Nava Vadaj",
        "name": "VRUNDAVAN NURSERY & PLANTATION",
        "shop": "garden_centre"
      },
      "geometry": {
        "type": "Point",
        "coordinates": [
          72.5722381,
          23.0677935
        ]
      },
      "id": "node/12612453819"
    },
    {
      "type": "Feature",
      "properties": {
        "@id": "node/12612453820",
        "addr:city": "Ahmedabad",
        "addr:district": "Ahmedabad",
        "addr:postcode": "380004",
        "addr:street": "Shop No 1, Gunvant Colony, Shahibag",
        "name": "ALPESH NURSERY",
        "shop": "garden_centre"
      },
      "geometry": {
        "type": "Point",
        "coordinates": [
          72.5953182,
          23.0486272
        ]
      },
      "id": "node/12612453820"
    },
    {
      "type": "Feature",
      "properties": {
        "@id": "node/12612453823",
        "addr:city": "Ahmedabad",
        "addr:district": "Ahmedabad",
        "addr:postcode": "380013",
        "addr:street": "B-3 Premkunj Society, Mirambica School Road, Naranpura, Ahmedabad",
        "name": "Mother Nature",
        "shop": "garden_centre"
      },
      "geometry": {
        "type": "Point",
        "coordinates": [
          72.5546905,
          23.0550602
        ]
      },
      "id": "node/12612453823"
    },
    {
      "type": "Feature",
      "properties": {
        "@id": "node/12827716395",
        "name": "Book Shop",
        "shop": "gift"
      },
      "geometry": {
        "type": "Point",
        "coordinates": [
          72.5803907,
          23.0599407
        ]
      },
      "id": "node/12827716395"
    },
    {
      "type": "Feature",
      "properties": {
        "@id": "node/13039212537",
        "computer:repair": "yes",
        "craft": "electronics_repair",
        "level": "1",
        "name": "Siddhi Computer and Mobile",
        "shop": "electronics"
      },
      "geometry": {
        "type": "Point",
        "coordinates": [
          72.5188982,
          23.0131511
        ]
      },
      "id": "node/13039212537"
    },
    {
      "type": "Feature",
      "properties": {
        "@id": "node/13059243501",
        "name": "MAHAVIR KIRANA STORE",
        "shop": "grocery"
      },
      "geometry": {
        "type": "Point",
        "coordinates": [
          72.5673346,
          23.0150729
        ]
      },
      "id": "node/13059243501"
    },
    {
      "type": "Feature",
      "properties": {
        "@id": "node/13120551561",
        "level": "0",
        "name": "Kerala Store",
        "shop": "general"
      },
      "geometry": {
        "type": "Point",
        "coordinates": [
          72.5272829,
          23.0403711
        ]
      },
      "id": "node/13120551561"
    },
    {
      "type": "Feature",
      "properties": {
        "@id": "node/13302744602",
        "addr:housenumber": "Shop No.6",
        "addr:postcode": "380027",
        "addr:street": "Ratan Apartment, Keshavnagar, Subhash Bridge, Ahmedabad",
        "contact:facebook": "SafaCollectionIndia",
        "contact:instagram": "SafaCollectionIndia",
        "contact:twitter": "SafaCollection_",
        "email": "safacollection11@gmail.com",
        "name": "Safa Collection",
        "name:hi": "साफा कलेक्शन",
        "opening_hours": "Mo-Su 09:00-21:00",
        "phone": "7874194700",
        "shop": "fabric",
        "website": "https://g.page/safacollectionindia"
      },
      "geometry": {
        "type": "Point",
        "coordinates": [
          72.5868224,
          23.0688643
        ]
      },
      "id": "node/13302744602"
    }
  ]
}